{"Annonce": [{"id":  "c84d1dcb-e074-488c-aebe-c2c9659c5bb9" ,"createdAt":  "2021-10-27T07:26:54.000Z" ,"updatedAt":  "2023-06-08T10:06:28.000Z" ,"title":  "5ka7mxina3" ,"content":  "yn2avvo6cg" ,"endDate":  "2064-04-30T11:38:23.000Z" ,"annonceType":  "07h9fkux6o" ,"longitude":  7.4 ,"latitude":  1.99 ,"interactions":  "lnghjrox1o" },{"id":  "4e8512fc-edd0-4d1e-ad18-53d84c0e109b" ,"createdAt":  "2021-10-13T20:58:54.000Z" ,"updatedAt":  "2022-04-22T12:50:24.000Z" ,"title":  "ncu7cisdu5" ,"content":  "viygbzxxoq" ,"endDate":  "2059-11-30T18:40:15.000Z" ,"annonceType":  "qufivao2lt" ,"longitude":  9.37 ,"latitude":  6.26 ,"interactions":  "d0pk3oot2q" },{"id":  "c0a7585b-2fbd-4311-81b3-ff8dc0b80da0" ,"createdAt":  "2023-05-24T04:41:59.000Z" ,"updatedAt":  "2022-12-11T02:03:56.000Z" ,"title":  "nturikryay" ,"content":  "g2o4y88df9" ,"endDate":  "2088-11-12T23:34:45.000Z" ,"annonceType":  "2rgkzxxumy" ,"longitude":  1.88 ,"latitude":  8.73 ,"interactions":  "8jc2mtdn0a" },{"id":  "49b27ef0-0a2a-490c-8c8e-05c9ad19650b" ,"createdAt":  "2021-12-10T02:38:04.000Z" ,"updatedAt":  "2023-06-24T09:10:01.000Z" ,"title":  "j24rlpe1gg" ,"content":  "w8t4w7p4ta" ,"endDate":  "2039-04-05T16:12:42.000Z" ,"annonceType":  "p75b4famvp" ,"longitude":  6.18 ,"latitude":  8.88 ,"interactions":  "a0dodbepe7" },{"id":  "62be10e8-6181-41b7-ae4f-ad5731e25b71" ,"createdAt":  "2022-02-02T23:04:10.000Z" ,"updatedAt":  "2021-07-30T15:43:41.000Z" ,"title":  "ozwir1kcc9" ,"content":  "5s48b6u0ir" ,"endDate":  "2021-10-14T14:12:00.000Z" ,"annonceType":  "wepqznxkvn" ,"longitude":  9.35 ,"latitude":  2.75 ,"interactions":  "cihakocrp4" },{"id":  "f56bc156-d045-4fd9-8c24-e5fd99a012c2" ,"createdAt":  "2022-05-13T18:41:21.000Z" ,"updatedAt":  "2023-01-30T20:28:00.000Z" ,"title":  "pwfne7x9n3" ,"content":  "2r81qkf9l5" ,"endDate":  "2084-11-21T21:44:12.000Z" ,"annonceType":  "4pxwvkd177" ,"longitude":  1.7 ,"latitude":  0.97 ,"interactions":  "vnh1tzramh" },{"id":  "3a97be2b-8f9b-442a-a735-dfd01ffbdea8" ,"createdAt":  "2023-01-29T16:15:41.000Z" ,"updatedAt":  "2022-09-11T21:17:36.000Z" ,"title":  "l752ljqeaj" ,"content":  "wn4e3p0xgm" ,"endDate":  "2022-05-05T10:10:53.000Z" ,"annonceType":  "bbw0kpd96a" ,"longitude":  7.42 ,"latitude":  6.93 ,"interactions":  "mt980yu3cb" },{"id":  "16b80315-7a4f-4fd0-b5c4-a03b2b48c416" ,"createdAt":  "2022-03-10T09:43:09.000Z" ,"updatedAt":  "2022-06-23T12:51:05.000Z" ,"title":  "g5vmki0dmd" ,"content":  "pngwy9ykqp" ,"endDate":  "2038-01-21T18:31:53.000Z" ,"annonceType":  "ubnas7w9l2" ,"longitude":  4.27 ,"latitude":  9.96 ,"interactions":  "rbihgyo4ng" },{"id":  "1363e9a0-a393-4646-9878-151240cbba61" ,"createdAt":  "2021-09-05T08:31:15.000Z" ,"updatedAt":  "2022-11-08T10:26:40.000Z" ,"title":  "4snciz8l7p" ,"content":  "bwnp6nbtk4" ,"endDate":  "2045-05-27T06:50:19.000Z" ,"annonceType":  "p5c8erghuy" ,"longitude":  0.72 ,"latitude":  0.29 ,"interactions":  "v3zok9u0mi" },{"id":  "90f4c36b-4434-4f9f-badd-d6087e3e9986" ,"createdAt":  "2022-10-12T19:42:51.000Z" ,"updatedAt":  "2023-07-09T01:28:46.000Z" ,"title":  "7xmkjn8xbq" ,"content":  "944v22qtz8" ,"endDate":  "2066-04-08T14:12:16.000Z" ,"annonceType":  "ag0ky7jxmh" ,"longitude":  8.65 ,"latitude":  8.25 ,"interactions":  "w0igid23nz" },{"id":  "c919174b-3284-4358-8e9b-03d94bc2244b" ,"createdAt":  "2021-10-10T14:04:42.000Z" ,"updatedAt":  "2022-02-09T01:11:54.000Z" ,"title":  "czqc2wocog" ,"content":  "jbndp68wcu" ,"endDate":  "2014-07-04T03:43:14.000Z" ,"annonceType":  "yv7iac3kpq" ,"longitude":  2.36 ,"latitude":  6.8 ,"interactions":  "jb7qxpfjgs" },{"id":  "830859cf-6848-4f1d-af48-94f98b94dfb2" ,"createdAt":  "2021-11-21T22:22:39.000Z" ,"updatedAt":  "2023-03-08T02:32:04.000Z" ,"title":  "bam7h8xst0" ,"content":  "o4ffkuumso" ,"endDate":  "2061-03-18T14:23:42.000Z" ,"annonceType":  "n4k2r9g0xm" ,"longitude":  2.6 ,"latitude":  1.65 ,"interactions":  "fh5gxskd1q" },{"id":  "a2a66567-c7d5-4099-a2e7-239b3c130159" ,"createdAt":  "2022-05-28T17:12:11.000Z" ,"updatedAt":  "2023-03-23T18:06:07.000Z" ,"title":  "3qvskhkwj1" ,"content":  "hp15quk3sx" ,"endDate":  "2091-02-03T20:40:33.000Z" ,"annonceType":  "bh2ixpjm32" ,"longitude":  4.3 ,"latitude":  7.17 ,"interactions":  "pp113oph3k" },{"id":  "552fc7b1-9182-427a-b20e-f6edb8714857" ,"createdAt":  "2022-07-22T16:54:51.000Z" ,"updatedAt":  "2021-08-16T17:56:00.000Z" ,"title":  "2lnvjae1yf" ,"content":  "4npgxnd282" ,"endDate":  "2027-08-07T22:37:48.000Z" ,"annonceType":  "ako535aykp" ,"longitude":  6.16 ,"latitude":  7.58 ,"interactions":  "l0a59fwf7b" },{"id":  "2ef9cec8-25da-4e7e-9222-7aad38ec44b8" ,"createdAt":  "2021-08-08T14:16:45.000Z" ,"updatedAt":  "2021-11-18T13:07:50.000Z" ,"title":  "1w1v085vep" ,"content":  "04ebd1ghdi" ,"endDate":  "2093-09-02T17:48:53.000Z" ,"annonceType":  "h67vh80brm" ,"longitude":  5.65 ,"latitude":  1.16 ,"interactions":  "jm1vf3rxtv" },{"id":  "4be16d3c-c249-4dcc-a5c8-cbfcfe06ca43" ,"createdAt":  "2023-07-20T17:25:49.000Z" ,"updatedAt":  "2022-02-23T09:46:52.000Z" ,"title":  "lmwmjgg9np" ,"content":  "ryxg70q3io" ,"endDate":  "2073-05-25T16:25:32.000Z" ,"annonceType":  "y68oavbf6g" ,"longitude":  8.05 ,"latitude":  6.26 ,"interactions":  "kggfk56bil" },{"id":  "1c70104f-5925-4d5b-8a78-dfa43d9fd230" ,"createdAt":  "2023-05-04T16:03:28.000Z" ,"updatedAt":  "2023-05-10T07:17:46.000Z" ,"title":  "wuvcsgnw5e" ,"content":  "n5ld8ocaaz" ,"endDate":  "2009-01-22T11:01:13.000Z" ,"annonceType":  "n4nw235275" ,"longitude":  9.47 ,"latitude":  8.38 ,"interactions":  "tk9n9mi61x" },{"id":  "823c62a2-4a10-430b-b127-23bd471fd1df" ,"createdAt":  "2022-10-21T18:08:09.000Z" ,"updatedAt":  "2023-01-01T09:27:21.000Z" ,"title":  "753yeupxec" ,"content":  "hbjmc3tfkd" ,"endDate":  "2081-04-17T13:22:19.000Z" ,"annonceType":  "wprh42zdb4" ,"longitude":  0.01 ,"latitude":  4.2 ,"interactions":  "hecpb5uloz" },{"id":  "aa422438-629e-4799-abf4-4b41b2587176" ,"createdAt":  "2021-11-11T12:28:46.000Z" ,"updatedAt":  "2023-06-12T22:59:40.000Z" ,"title":  "6qcaorcdzb" ,"content":  "3viraflzp5" ,"endDate":  "1995-07-25T09:52:39.000Z" ,"annonceType":  "jvusbcwelx" ,"longitude":  7.49 ,"latitude":  9.7 ,"interactions":  "kfp3yltxxj" },{"id":  "84a91699-a4d6-4c2e-bbfa-1eabe162f694" ,"createdAt":  "2022-10-20T16:26:50.000Z" ,"updatedAt":  "2022-12-04T06:13:05.000Z" ,"title":  "qhyvuryluj" ,"content":  "a6h05jr2cd" ,"endDate":  "2075-10-30T07:24:04.000Z" ,"annonceType":  "yeghwnu9m1" ,"longitude":  5.82 ,"latitude":  3.46 ,"interactions":  "eeavlfgwxj" },{"id":  "c89ec385-03f8-469a-a59f-cb317c766dfd" ,"createdAt":  "2022-02-26T20:57:30.000Z" ,"updatedAt":  "2022-04-02T11:31:31.000Z" ,"title":  "b88br4zst2" ,"content":  "d9wsiat7ie" ,"endDate":  "2007-03-09T05:49:39.000Z" ,"annonceType":  "xghz7hjsn3" ,"longitude":  9.92 ,"latitude":  0.17 ,"interactions":  "7g8hsnw62s" },{"id":  "0752207d-a742-44e8-92f8-b4be620affb7" ,"createdAt":  "2021-11-04T08:25:17.000Z" ,"updatedAt":  "2022-12-08T00:32:50.000Z" ,"title":  "d6latahrst" ,"content":  "1cky4sfdgz" ,"endDate":  "2046-03-26T08:00:49.000Z" ,"annonceType":  "95fgrzvhqm" ,"longitude":  5.37 ,"latitude":  1.24 ,"interactions":  "xib0cb78u9" },{"id":  "50b72e63-3ce3-4645-a27d-d03186334fee" ,"createdAt":  "2023-06-09T10:44:13.000Z" ,"updatedAt":  "2023-07-24T20:07:59.000Z" ,"title":  "5zciymn6ry" ,"content":  "6cx742zu7u" ,"endDate":  "2036-11-27T19:42:07.000Z" ,"annonceType":  "40fuugvav0" ,"longitude":  6.03 ,"latitude":  1.6 ,"interactions":  "uvasf2u1ss" },{"id":  "2ba21322-747c-4007-be5b-f1631f2a81e6" ,"createdAt":  "2022-01-05T16:10:17.000Z" ,"updatedAt":  "2022-08-01T18:19:13.000Z" ,"title":  "ttr3drv9zm" ,"content":  "7q7ctush15" ,"endDate":  "2031-02-04T22:57:37.000Z" ,"annonceType":  "600nslhzas" ,"longitude":  4.84 ,"latitude":  5.36 ,"interactions":  "yc20fgst86" },{"id":  "7e0e5e98-e141-40a8-b21b-3e25cb2dfe03" ,"createdAt":  "2023-01-15T11:49:32.000Z" ,"updatedAt":  "2021-08-27T19:19:45.000Z" ,"title":  "vdgufjyci5" ,"content":  "bfvnglgr3g" ,"endDate":  "2013-05-12T16:39:36.000Z" ,"annonceType":  "g14yghrdp3" ,"longitude":  4.78 ,"latitude":  8.8 ,"interactions":  "uv0xjczr6t" },{"id":  "a8225ad2-72fa-4c7c-90a1-703cf72b20b3" ,"createdAt":  "2022-10-30T18:43:02.000Z" ,"updatedAt":  "2022-08-22T11:58:23.000Z" ,"title":  "zzgm5lddcd" ,"content":  "6h9gwv92bb" ,"endDate":  "2061-01-05T20:18:16.000Z" ,"annonceType":  "mcx3l2rzfl" ,"longitude":  3.94 ,"latitude":  4.51 ,"interactions":  "uu9al2vskr" },{"id":  "6ec9b7c5-a812-4e23-b352-d5b60fb00630" ,"createdAt":  "2022-05-18T06:09:21.000Z" ,"updatedAt":  "2021-12-20T04:18:19.000Z" ,"title":  "46duedzyiy" ,"content":  "3jdew69uhi" ,"endDate":  "2017-05-01T13:13:53.000Z" ,"annonceType":  "2u1gzcwwwk" ,"longitude":  0.65 ,"latitude":  8.66 ,"interactions":  "jzgkzdf2dr" },{"id":  "defb3de8-1ac9-4e1c-bdbd-5d0a7336ecc4" ,"createdAt":  "2023-04-30T22:05:18.000Z" ,"updatedAt":  "2022-07-09T08:03:45.000Z" ,"title":  "i8an95m1o4" ,"content":  "wl3gqiq9dv" ,"endDate":  "2007-04-07T17:43:01.000Z" ,"annonceType":  "h290vuqz32" ,"longitude":  8.75 ,"latitude":  9.45 ,"interactions":  "9c5akw8n6w" },{"id":  "dc85dc68-7853-449c-b0f4-6ec385ef3974" ,"createdAt":  "2022-11-23T14:54:05.000Z" ,"updatedAt":  "2022-05-13T12:51:32.000Z" ,"title":  "vypjlqzs33" ,"content":  "ozykcbtn9p" ,"endDate":  "2043-11-07T02:02:56.000Z" ,"annonceType":  "dagst5bo14" ,"longitude":  9.45 ,"latitude":  7.28 ,"interactions":  "8p8kjazapw" },{"id":  "ca5bf233-65b4-462b-a26c-06e57964c06e" ,"createdAt":  "2023-01-01T15:31:15.000Z" ,"updatedAt":  "2021-07-29T12:11:38.000Z" ,"title":  "k5rae2jere" ,"content":  "j7iocaiybp" ,"endDate":  "2082-08-29T07:00:43.000Z" ,"annonceType":  "e2ua113624" ,"longitude":  3.06 ,"latitude":  5.45 ,"interactions":  "aky10gywe5" },{"id":  "8fc82a4b-86dc-4bc0-87b3-cd0f036dd1ab" ,"createdAt":  "2021-11-08T16:48:22.000Z" ,"updatedAt":  "2022-11-04T22:17:15.000Z" ,"title":  "z3zd6dwmbm" ,"content":  "7y5wl99jkp" ,"endDate":  "2029-09-23T07:28:29.000Z" ,"annonceType":  "a0jcwmfhxr" ,"longitude":  8.43 ,"latitude":  6.05 ,"interactions":  "8jepvfcwya" },{"id":  "c79038b1-3b26-4b8b-8d1f-b2017f499383" ,"createdAt":  "2022-04-25T22:43:25.000Z" ,"updatedAt":  "2022-06-08T14:44:21.000Z" ,"title":  "kqwtauzg5t" ,"content":  "yblwcv096v" ,"endDate":  "2024-05-12T03:28:54.000Z" ,"annonceType":  "89par0drx0" ,"longitude":  6.17 ,"latitude":  5.7 ,"interactions":  "6spjdvo6up" },{"id":  "a25db696-f75d-4e4b-b122-309ef64c8324" ,"createdAt":  "2021-10-04T02:29:26.000Z" ,"updatedAt":  "2021-12-06T19:25:33.000Z" ,"title":  "v2anxhq8pa" ,"content":  "6g2mt2wl9h" ,"endDate":  "2088-11-24T01:44:55.000Z" ,"annonceType":  "z4ry9lwl5o" ,"longitude":  3.05 ,"latitude":  7.54 ,"interactions":  "j8qsgqmocs" },{"id":  "617473cb-17ec-4e12-8732-6a4950c1daa7" ,"createdAt":  "2022-09-04T00:11:16.000Z" ,"updatedAt":  "2022-05-05T12:06:10.000Z" ,"title":  "ja1if4ueda" ,"content":  "nsaofv47ay" ,"endDate":  "2040-11-20T12:01:06.000Z" ,"annonceType":  "p6852057q1" ,"longitude":  1.05 ,"latitude":  8.07 ,"interactions":  "0o20sgdym7" },{"id":  "b1582de0-ac0c-482d-966e-7bd789110590" ,"createdAt":  "2022-11-26T23:32:12.000Z" ,"updatedAt":  "2022-07-25T14:11:04.000Z" ,"title":  "e6g9rdd3ge" ,"content":  "tluxdto3lw" ,"endDate":  "2069-02-04T20:14:34.000Z" ,"annonceType":  "dbnljulk5j" ,"longitude":  2.97 ,"latitude":  8.49 ,"interactions":  "gkap15tm44" },{"id":  "b8d62f25-6f23-4416-809c-94e69fcc12c1" ,"createdAt":  "2022-11-07T12:20:23.000Z" ,"updatedAt":  "2021-09-18T10:19:01.000Z" ,"title":  "obpwwdslb4" ,"content":  "mw1juunf23" ,"endDate":  "2055-11-23T06:25:21.000Z" ,"annonceType":  "kdxqzd3xvu" ,"longitude":  9.23 ,"latitude":  2.56 ,"interactions":  "8acpf6o397" },{"id":  "33cf7260-d27b-44b0-868c-9201a10baaca" ,"createdAt":  "2023-02-11T04:18:04.000Z" ,"updatedAt":  "2022-03-19T07:37:37.000Z" ,"title":  "dor18jpn6l" ,"content":  "2joc7ixwk2" ,"endDate":  "2055-06-24T14:54:00.000Z" ,"annonceType":  "sagh9l9t48" ,"longitude":  6.05 ,"latitude":  0.4 ,"interactions":  "cjprp9tiiw" },{"id":  "e294a897-9419-41b0-8d71-ee9378235010" ,"createdAt":  "2021-12-08T00:42:49.000Z" ,"updatedAt":  "2022-08-25T03:20:23.000Z" ,"title":  "v6so3lv6g8" ,"content":  "8dwygmpeqb" ,"endDate":  "2096-11-29T19:12:57.000Z" ,"annonceType":  "iomg2sw7qk" ,"longitude":  4.18 ,"latitude":  7.53 ,"interactions":  "8ioodl7u3y" },{"id":  "f2474aa2-d4bf-4cc2-b3c8-37e465e7ab00" ,"createdAt":  "2021-07-28T00:55:16.000Z" ,"updatedAt":  "2022-11-28T03:13:49.000Z" ,"title":  "roy15vby5y" ,"content":  "q5af2y4mnz" ,"endDate":  "2031-07-20T14:40:23.000Z" ,"annonceType":  "kzmm2obac7" ,"longitude":  9.89 ,"latitude":  1.19 ,"interactions":  "iczy2vba4a" },{"id":  "6d8b8dc3-eec7-43b8-b256-069bbddbed84" ,"createdAt":  "2021-12-22T12:07:44.000Z" ,"updatedAt":  "2023-07-22T15:54:42.000Z" ,"title":  "18qpx8gulr" ,"content":  "q5vmlg6grp" ,"endDate":  "2073-09-26T14:39:09.000Z" ,"annonceType":  "o0s0klzejx" ,"longitude":  5.75 ,"latitude":  0.63 ,"interactions":  "ilgixz4tff" },{"id":  "f0d80830-0e02-45e4-9470-c337beb2bc6b" ,"createdAt":  "2022-07-19T23:38:30.000Z" ,"updatedAt":  "2023-02-07T10:59:20.000Z" ,"title":  "zwnhbldr2i" ,"content":  "10js06k8eq" ,"endDate":  "2053-12-28T19:22:33.000Z" ,"annonceType":  "dlizcihfu4" ,"longitude":  1.74 ,"latitude":  8.28 ,"interactions":  "tdtj8k5oue" },{"id":  "ff5eca3d-19f4-48fb-82d1-fc5dbbbfbb09" ,"createdAt":  "2022-11-26T18:37:41.000Z" ,"updatedAt":  "2023-01-14T23:25:25.000Z" ,"title":  "4iev717pkh" ,"content":  "nggxjkvmhp" ,"endDate":  "2097-07-12T01:29:02.000Z" ,"annonceType":  "orm7r5wqg5" ,"longitude":  0.09 ,"latitude":  2.51 ,"interactions":  "9pv74gkds1" },{"id":  "4a487d43-5c30-49a4-acfb-445762a4759f" ,"createdAt":  "2022-10-27T16:37:30.000Z" ,"updatedAt":  "2023-03-09T11:37:32.000Z" ,"title":  "xjj42q5hpk" ,"content":  "c9hktqxzju" ,"endDate":  "2072-10-21T03:17:37.000Z" ,"annonceType":  "263v5w0dyy" ,"longitude":  3.13 ,"latitude":  1.57 ,"interactions":  "co216hoe86" },{"id":  "a6d09560-65ca-4f92-9f2a-52cf9faba13b" ,"createdAt":  "2022-09-12T10:28:27.000Z" ,"updatedAt":  "2023-05-02T01:12:13.000Z" ,"title":  "xpdkvdqz6n" ,"content":  "xurf7fp8pv" ,"endDate":  "2011-01-30T02:23:49.000Z" ,"annonceType":  "bz93ssv7n2" ,"longitude":  8.93 ,"latitude":  3.74 ,"interactions":  "idtwmfchso" },{"id":  "08ca39e5-7115-4e1f-b7df-d7f244363313" ,"createdAt":  "2023-07-04T17:08:02.000Z" ,"updatedAt":  "2022-03-30T22:41:50.000Z" ,"title":  "uq3fr9ju7u" ,"content":  "zts6hmkhw7" ,"endDate":  "2042-12-06T12:08:53.000Z" ,"annonceType":  "sy6nnibyb1" ,"longitude":  1.83 ,"latitude":  7.13 ,"interactions":  "hggjmgpwo0" },{"id":  "43db7387-2e31-442a-8ff4-fc2cb5aea64c" ,"createdAt":  "2023-01-31T14:57:03.000Z" ,"updatedAt":  "2023-03-13T07:42:13.000Z" ,"title":  "xee4yr8gny" ,"content":  "erbf15waah" ,"endDate":  "2021-10-21T02:27:54.000Z" ,"annonceType":  "x41w14cyco" ,"longitude":  2.34 ,"latitude":  3.4 ,"interactions":  "epwnk67l89" },{"id":  "327025d3-005c-4c14-a749-22c3f972c9a9" ,"createdAt":  "2023-05-05T21:47:33.000Z" ,"updatedAt":  "2022-07-03T06:23:14.000Z" ,"title":  "7u0p21gv3a" ,"content":  "6e3gsv51cs" ,"endDate":  "2019-10-08T09:37:17.000Z" ,"annonceType":  "3wejz19ce8" ,"longitude":  8.19 ,"latitude":  8.77 ,"interactions":  "iyzs1ve8kd" },{"id":  "499d3d65-3391-43ef-b790-4e8a78213bc7" ,"createdAt":  "2023-03-18T10:26:43.000Z" ,"updatedAt":  "2023-05-16T19:07:45.000Z" ,"title":  "wmdjternnb" ,"content":  "pw8dv0v15p" ,"endDate":  "2059-07-29T16:39:20.000Z" ,"annonceType":  "pnf1775gc7" ,"longitude":  9.86 ,"latitude":  8.57 ,"interactions":  "540cohzc62" },{"id":  "d751b989-5133-4827-b2c1-0ac4f1f7d915" ,"createdAt":  "2022-12-15T05:28:28.000Z" ,"updatedAt":  "2023-03-10T16:30:41.000Z" ,"title":  "1lb4e22sta" ,"content":  "u5iexwyg6l" ,"endDate":  "2053-12-06T10:53:51.000Z" ,"annonceType":  "fw7wfsmy5m" ,"longitude":  8.8 ,"latitude":  5.03 ,"interactions":  "2d7qemcgar" },{"id":  "4f57e69a-4efb-4d33-b4e9-5bf9870e1aea" ,"createdAt":  "2022-03-24T20:35:54.000Z" ,"updatedAt":  "2022-12-17T05:29:01.000Z" ,"title":  "bwjdnkv8zh" ,"content":  "t7dxlj25qn" ,"endDate":  "2011-07-20T19:59:13.000Z" ,"annonceType":  "b8je1rge0m" ,"longitude":  1.94 ,"latitude":  0.74 ,"interactions":  "4jaoh3vgln" },{"id":  "e9704b26-fc0a-4e34-9e5b-18b5734c3519" ,"createdAt":  "2022-05-30T10:01:29.000Z" ,"updatedAt":  "2023-06-26T19:51:22.000Z" ,"title":  "vi0cgzg7f7" ,"content":  "n3pwuuzajw" ,"endDate":  "2081-04-04T07:18:46.000Z" ,"annonceType":  "ulcgdoupx2" ,"longitude":  3.58 ,"latitude":  3.56 ,"interactions":  "0ab00hmbdx" },{"id":  "38a30453-6ed9-4a6a-a4d0-4b3d6f6b6b7d" ,"createdAt":  "2023-02-24T00:00:28.000Z" ,"updatedAt":  "2021-08-27T23:13:39.000Z" ,"title":  "85l8xgve0f" ,"content":  "egoukb52pf" ,"endDate":  "2014-07-03T13:07:04.000Z" ,"annonceType":  "tgln0nejyz" ,"longitude":  9.36 ,"latitude":  4.18 ,"interactions":  "xplladrr4q" },{"id":  "d0b32a18-95a3-4778-b07f-cb58b2180586" ,"createdAt":  "2022-09-05T14:12:04.000Z" ,"updatedAt":  "2021-09-28T12:15:34.000Z" ,"title":  "e3k8uc9cpl" ,"content":  "e1t52uialn" ,"endDate":  "2031-07-21T10:21:50.000Z" ,"annonceType":  "yaggdeaiqb" ,"longitude":  1.08 ,"latitude":  8.67 ,"interactions":  "3ir5wt7re9" },{"id":  "7ab31051-b0df-4d50-ba98-48706b5eb208" ,"createdAt":  "2022-06-15T09:57:09.000Z" ,"updatedAt":  "2022-02-12T18:35:32.000Z" ,"title":  "99wsi1ighx" ,"content":  "5ij5xinju7" ,"endDate":  "2099-10-07T22:22:10.000Z" ,"annonceType":  "zgzdi2o9bm" ,"longitude":  4.44 ,"latitude":  4.4 ,"interactions":  "9ec7x5dyni" },{"id":  "e94f58bd-80a5-492e-9a32-1ff96a17eb89" ,"createdAt":  "2022-03-23T06:49:31.000Z" ,"updatedAt":  "2022-01-20T23:32:15.000Z" ,"title":  "hv4k7b4q6w" ,"content":  "0oenb21q12" ,"endDate":  "2057-01-23T09:56:08.000Z" ,"annonceType":  "3u1mywxf81" ,"longitude":  0.12 ,"latitude":  0.32 ,"interactions":  "ik7pyfxvpw" },{"id":  "5339d259-9941-44e3-9cff-7f22e00079e2" ,"createdAt":  "2022-01-06T18:44:07.000Z" ,"updatedAt":  "2022-08-16T06:25:11.000Z" ,"title":  "102p9drpkg" ,"content":  "vi5kf8lmn1" ,"endDate":  "2048-04-21T10:38:38.000Z" ,"annonceType":  "ub61i3kcf4" ,"longitude":  1.72 ,"latitude":  7.8 ,"interactions":  "apqqs1l3iu" },{"id":  "07dacb4a-cff6-4c13-81a1-f1ebb09166b2" ,"createdAt":  "2022-01-30T06:36:26.000Z" ,"updatedAt":  "2022-05-29T13:40:42.000Z" ,"title":  "3d7e8ga6h5" ,"content":  "3em6vnl6g6" ,"endDate":  "2010-06-21T18:35:07.000Z" ,"annonceType":  "b0bsg1s1eb" ,"longitude":  5.59 ,"latitude":  7.31 ,"interactions":  "jgjgnyx9rx" },{"id":  "4eaede25-262e-42e4-a41d-9bcdbd1d45fc" ,"createdAt":  "2023-04-12T06:17:37.000Z" ,"updatedAt":  "2023-06-12T17:47:28.000Z" ,"title":  "1vp8lysvnr" ,"content":  "1y275e3d32" ,"endDate":  "2031-06-04T13:02:22.000Z" ,"annonceType":  "w4qlwiqwm2" ,"longitude":  5.55 ,"latitude":  3.09 ,"interactions":  "k8oqbnohlt" },{"id":  "39340fd8-39d0-4c9e-a40f-ee2f5a870ab8" ,"createdAt":  "2022-12-03T07:52:30.000Z" ,"updatedAt":  "2022-02-18T14:56:11.000Z" ,"title":  "5jc2ecjex3" ,"content":  "mcehcacnyi" ,"endDate":  "2021-12-10T04:35:35.000Z" ,"annonceType":  "szxf02jxe3" ,"longitude":  1.65 ,"latitude":  3.08 ,"interactions":  "uv280cjetb" },{"id":  "a33c8e94-9297-482d-b03b-dfa4d72608a3" ,"createdAt":  "2022-02-07T05:49:48.000Z" ,"updatedAt":  "2022-11-07T05:37:43.000Z" ,"title":  "ij5yspuo0a" ,"content":  "rkonhdl2s6" ,"endDate":  "2049-01-25T04:22:31.000Z" ,"annonceType":  "kgdr0zyx34" ,"longitude":  2.1 ,"latitude":  4 ,"interactions":  "ho6v620e0a" },{"id":  "8d94a94c-67d1-48b3-aa7e-bd8b5cace161" ,"createdAt":  "2021-09-20T06:24:25.000Z" ,"updatedAt":  "2022-08-09T18:06:37.000Z" ,"title":  "wgder7wplt" ,"content":  "okjmlmvy7h" ,"endDate":  "1995-11-13T20:44:25.000Z" ,"annonceType":  "hc4g34s4an" ,"longitude":  9.68 ,"latitude":  8.77 ,"interactions":  "61jkgmlttq" },{"id":  "86053844-3851-4f29-ad5d-2c5a9f382e4d" ,"createdAt":  "2022-10-16T13:05:12.000Z" ,"updatedAt":  "2021-12-25T02:49:30.000Z" ,"title":  "8l7ncbp8g8" ,"content":  "j2x7fifrtp" ,"endDate":  "2040-04-09T01:39:42.000Z" ,"annonceType":  "anrbzvr4u4" ,"longitude":  0.8 ,"latitude":  7.98 ,"interactions":  "fegh75vav8" },{"id":  "e8bf5285-091a-4ee4-af1b-b942d5680a97" ,"createdAt":  "2022-02-20T08:35:16.000Z" ,"updatedAt":  "2023-05-18T08:56:48.000Z" ,"title":  "9jv8fjqxya" ,"content":  "rt9lukmgyv" ,"endDate":  "2055-11-16T16:24:53.000Z" ,"annonceType":  "0fd9xlm2se" ,"longitude":  2.86 ,"latitude":  9.14 ,"interactions":  "qp1yt0in8c" },{"id":  "d0962828-59a5-4ba2-8a43-624c35fdc045" ,"createdAt":  "2021-10-08T09:50:48.000Z" ,"updatedAt":  "2021-12-31T04:46:55.000Z" ,"title":  "2r7zchc5ze" ,"content":  "of7a1gruqp" ,"endDate":  "2085-08-22T01:09:27.000Z" ,"annonceType":  "3lz9zzo44u" ,"longitude":  5.25 ,"latitude":  2.07 ,"interactions":  "b0rhu5951k" },{"id":  "31c5372a-1a73-4ad6-9c6c-43b213df4d52" ,"createdAt":  "2023-02-20T16:57:59.000Z" ,"updatedAt":  "2023-03-05T16:49:14.000Z" ,"title":  "4tl8n4rl1l" ,"content":  "t9m49lnl6o" ,"endDate":  "1998-10-02T00:21:46.000Z" ,"annonceType":  "fafn41xxbd" ,"longitude":  0.85 ,"latitude":  5.48 ,"interactions":  "d7l0yty7ja" },{"id":  "1b78d4d1-753a-4815-960c-5d0a9c3320b7" ,"createdAt":  "2022-06-15T03:45:01.000Z" ,"updatedAt":  "2022-03-21T04:02:18.000Z" ,"title":  "4jh1e28b2d" ,"content":  "plqnycs4j7" ,"endDate":  "2008-06-01T13:09:50.000Z" ,"annonceType":  "80q257j8og" ,"longitude":  6.42 ,"latitude":  7.87 ,"interactions":  "vewlizj738" },{"id":  "a6567d5a-5ef7-4580-91ef-03833903e9ed" ,"createdAt":  "2022-08-25T10:58:52.000Z" ,"updatedAt":  "2023-01-03T22:14:19.000Z" ,"title":  "lqt090pvq5" ,"content":  "ispb79u5b7" ,"endDate":  "2017-10-23T10:54:51.000Z" ,"annonceType":  "l8qpr0zsy5" ,"longitude":  4.53 ,"latitude":  4.4 ,"interactions":  "ljmm9gkqpe" },{"id":  "00a12c9d-9f8c-4a24-9484-8f91b41f134b" ,"createdAt":  "2021-08-20T20:48:25.000Z" ,"updatedAt":  "2021-11-02T17:53:08.000Z" ,"title":  "bq1mbqrbd9" ,"content":  "huitsg1nh1" ,"endDate":  "2028-08-27T09:08:42.000Z" ,"annonceType":  "2t0gxe3iel" ,"longitude":  0.66 ,"latitude":  6.85 ,"interactions":  "42cf9g3yzk" },{"id":  "2b8dd34a-7081-4a72-a0e4-bbdf676a874e" ,"createdAt":  "2022-06-20T20:47:15.000Z" ,"updatedAt":  "2022-11-28T02:14:18.000Z" ,"title":  "w7p4yiod2p" ,"content":  "k3gqcp4xt5" ,"endDate":  "2056-07-13T07:40:36.000Z" ,"annonceType":  "fqyno98b17" ,"longitude":  9.08 ,"latitude":  0.23 ,"interactions":  "pr11atudak" },{"id":  "bb943756-88c5-4ebd-b908-bd94f223ecea" ,"createdAt":  "2022-01-05T01:21:20.000Z" ,"updatedAt":  "2023-07-24T15:25:55.000Z" ,"title":  "ir5r979ssu" ,"content":  "ugcxnute2m" ,"endDate":  "2018-05-29T17:02:09.000Z" ,"annonceType":  "ewdydt4yso" ,"longitude":  1.36 ,"latitude":  6.26 ,"interactions":  "trhpfkw6kl" },{"id":  "ef3bd6fa-5ee1-48db-8db8-c8999a66c1dd" ,"createdAt":  "2023-03-28T00:09:22.000Z" ,"updatedAt":  "2021-11-01T05:37:54.000Z" ,"title":  "8xb7h4s7h6" ,"content":  "uf969kp9si" ,"endDate":  "2067-08-29T10:13:02.000Z" ,"annonceType":  "u74b9gj5n8" ,"longitude":  7.57 ,"latitude":  5.11 ,"interactions":  "buz1l6mbkp" },{"id":  "f3e0eba9-ce86-4237-ba19-6a55649f3b9a" ,"createdAt":  "2023-02-18T07:54:53.000Z" ,"updatedAt":  "2022-01-02T13:50:56.000Z" ,"title":  "4a4i4btjpk" ,"content":  "xophztdzh7" ,"endDate":  "2088-01-30T00:43:27.000Z" ,"annonceType":  "93823q39e6" ,"longitude":  3.2 ,"latitude":  4.31 ,"interactions":  "h4yqq6nne6" },{"id":  "b0aa74bf-3870-4d39-88ed-884514ec03c7" ,"createdAt":  "2023-05-06T00:02:38.000Z" ,"updatedAt":  "2021-12-16T12:27:42.000Z" ,"title":  "4izjpukq5u" ,"content":  "9t5jh3vva4" ,"endDate":  "2063-09-22T06:42:34.000Z" ,"annonceType":  "mvu4kjuokr" ,"longitude":  1.46 ,"latitude":  3.12 ,"interactions":  "lxu0gld5w4" },{"id":  "aa7bdeed-947a-4e29-a7eb-c5ca754513fa" ,"createdAt":  "2022-12-03T03:11:24.000Z" ,"updatedAt":  "2023-04-11T06:43:20.000Z" ,"title":  "7tf8t20zdn" ,"content":  "iwpfeg59hi" ,"endDate":  "2014-10-01T05:23:22.000Z" ,"annonceType":  "tdpfz35zeo" ,"longitude":  6.67 ,"latitude":  6.84 ,"interactions":  "284phjs4vk" },{"id":  "65720c15-c774-4b41-8c3c-cfa7fd261da4" ,"createdAt":  "2021-10-18T12:56:06.000Z" ,"updatedAt":  "2022-05-13T21:04:59.000Z" ,"title":  "pe8fhdtoc9" ,"content":  "2o923yldkh" ,"endDate":  "2051-01-07T06:24:13.000Z" ,"annonceType":  "rapwc8j0s6" ,"longitude":  0.87 ,"latitude":  9.93 ,"interactions":  "homrywlmd4" },{"id":  "7bbf3a84-755d-4eff-a47f-e95ffadceffc" ,"createdAt":  "2021-08-20T16:39:46.000Z" ,"updatedAt":  "2022-03-09T14:32:38.000Z" ,"title":  "rpyc188z1d" ,"content":  "q93x9wcze9" ,"endDate":  "2094-10-28T07:18:02.000Z" ,"annonceType":  "beyldim84q" ,"longitude":  3.54 ,"latitude":  6.68 ,"interactions":  "x5025f8fj9" },{"id":  "9d120617-d586-4207-911f-c34d452d786e" ,"createdAt":  "2023-07-11T18:11:46.000Z" ,"updatedAt":  "2022-06-19T04:01:30.000Z" ,"title":  "14r68yovdl" ,"content":  "fdw4aqol3b" ,"endDate":  "2080-09-30T21:34:50.000Z" ,"annonceType":  "nbyiyeh0j2" ,"longitude":  0.05 ,"latitude":  2.78 ,"interactions":  "q7xvfggldc" },{"id":  "43012aa7-5c31-4ed5-bbb8-9fbea6d33063" ,"createdAt":  "2022-07-04T17:49:53.000Z" ,"updatedAt":  "2023-01-14T00:31:05.000Z" ,"title":  "ca2l2sfcbq" ,"content":  "081vfvytos" ,"endDate":  "2073-07-16T05:18:47.000Z" ,"annonceType":  "ccez0iszs4" ,"longitude":  7.01 ,"latitude":  5.73 ,"interactions":  "fo09zjrt4i" },{"id":  "7b29d662-80ff-4d32-9fe7-b5d2bd487187" ,"createdAt":  "2022-02-25T20:16:51.000Z" ,"updatedAt":  "2021-12-23T09:28:49.000Z" ,"title":  "awvtw2z53o" ,"content":  "uimd59efa2" ,"endDate":  "2068-08-12T01:08:51.000Z" ,"annonceType":  "xfds2ry3al" ,"longitude":  6.41 ,"latitude":  6.21 ,"interactions":  "9sjx0g5oc0" },{"id":  "617be749-01a2-4397-afab-d789595e9080" ,"createdAt":  "2021-12-21T12:31:13.000Z" ,"updatedAt":  "2022-01-12T02:41:26.000Z" ,"title":  "0ung8swjsl" ,"content":  "qp9myynrxz" ,"endDate":  "2050-03-24T05:52:26.000Z" ,"annonceType":  "m3r6sodp5i" ,"longitude":  8.75 ,"latitude":  3.28 ,"interactions":  "gqs8xo09nm" },{"id":  "222b3ec4-ddfe-4232-86e1-78a240482386" ,"createdAt":  "2022-06-03T15:07:59.000Z" ,"updatedAt":  "2022-06-22T14:31:59.000Z" ,"title":  "wfmeh02yo5" ,"content":  "d7ckwwyzg9" ,"endDate":  "1993-10-28T05:22:57.000Z" ,"annonceType":  "dfj6fcg0i7" ,"longitude":  1.68 ,"latitude":  8.97 ,"interactions":  "6fh3lquf0x" },{"id":  "25c54b5f-34f6-4445-b67f-ba64d7c333f3" ,"createdAt":  "2022-01-09T13:35:48.000Z" ,"updatedAt":  "2022-11-01T07:30:17.000Z" ,"title":  "a9utvkwz7p" ,"content":  "dvwkral17m" ,"endDate":  "2079-11-27T13:39:53.000Z" ,"annonceType":  "53zfu9i097" ,"longitude":  0.91 ,"latitude":  9.51 ,"interactions":  "3u3kuxnv7l" },{"id":  "f6a6e7d2-20a8-4d54-8bd1-8d81537016f8" ,"createdAt":  "2021-09-06T04:51:17.000Z" ,"updatedAt":  "2023-05-14T15:07:26.000Z" ,"title":  "na3xm6okcr" ,"content":  "5zqgsdj1e5" ,"endDate":  "2090-10-02T15:34:09.000Z" ,"annonceType":  "y7qfz1pmpx" ,"longitude":  5.48 ,"latitude":  0.12 ,"interactions":  "000w0guwz9" },{"id":  "1ead5fd2-cfc5-4697-b47f-adbfde8bdebd" ,"createdAt":  "2021-07-30T00:47:14.000Z" ,"updatedAt":  "2021-09-16T12:56:52.000Z" ,"title":  "8s7lyht2vc" ,"content":  "cz5ajqca9g" ,"endDate":  "2033-06-26T16:47:37.000Z" ,"annonceType":  "0zue0ube6a" ,"longitude":  8.33 ,"latitude":  5.66 ,"interactions":  "0p7e86adhw" },{"id":  "938520c6-d373-4e07-9cf9-ef9196b802a3" ,"createdAt":  "2022-03-05T13:37:42.000Z" ,"updatedAt":  "2021-08-31T23:02:07.000Z" ,"title":  "4mpgggg0nw" ,"content":  "unksapers7" ,"endDate":  "2078-08-19T18:27:47.000Z" ,"annonceType":  "ch9c06yx0n" ,"longitude":  7.4 ,"latitude":  2.78 ,"interactions":  "66m1best26" },{"id":  "0f6efd0a-47c3-46bb-8e3b-4c1dd95f07fd" ,"createdAt":  "2022-12-02T18:43:39.000Z" ,"updatedAt":  "2021-08-22T17:55:39.000Z" ,"title":  "e5aoryvjd1" ,"content":  "1yci81z1ef" ,"endDate":  "2042-01-02T02:56:56.000Z" ,"annonceType":  "oag46wwog0" ,"longitude":  4.43 ,"latitude":  7.27 ,"interactions":  "1zftba9ool" },{"id":  "2f043287-d80e-465b-b9c5-b100da186082" ,"createdAt":  "2022-05-08T20:22:35.000Z" ,"updatedAt":  "2023-04-30T01:20:31.000Z" ,"title":  "w4xnoqn75y" ,"content":  "g1hc04kdt3" ,"endDate":  "2082-03-04T19:15:44.000Z" ,"annonceType":  "fq84pd80tw" ,"longitude":  3.48 ,"latitude":  9.95 ,"interactions":  "k6yr3ua387" },{"id":  "afcfe845-1023-4ca5-a8b8-800c42b674b4" ,"createdAt":  "2022-06-25T20:37:42.000Z" ,"updatedAt":  "2022-10-23T23:20:14.000Z" ,"title":  "1wset7ad1o" ,"content":  "8akv8xpvu8" ,"endDate":  "2012-02-11T06:25:26.000Z" ,"annonceType":  "11k1rt8jf8" ,"longitude":  4.98 ,"latitude":  3.54 ,"interactions":  "9pp0txs68v" },{"id":  "9f8a2e30-25eb-4dd4-9fb8-dea77bf3f840" ,"createdAt":  "2023-07-26T10:14:22.000Z" ,"updatedAt":  "2023-03-18T19:54:04.000Z" ,"title":  "ahu6v3bt5r" ,"content":  "b71i2zlzoe" ,"endDate":  "2021-11-10T00:40:51.000Z" ,"annonceType":  "iyzwf9bovv" ,"longitude":  4.99 ,"latitude":  9.38 ,"interactions":  "71imugbbii" },{"id":  "d8bc0af8-b5f9-4d99-bd79-f197a29601f8" ,"createdAt":  "2022-04-22T23:38:24.000Z" ,"updatedAt":  "2023-02-18T20:11:00.000Z" ,"title":  "6soeoz2142" ,"content":  "lqrwneevtv" ,"endDate":  "2094-02-06T10:48:40.000Z" ,"annonceType":  "0ln8tymumr" ,"longitude":  8.4 ,"latitude":  4.81 ,"interactions":  "wc8mzznwyp" },{"id":  "771fb96b-bb51-44e8-b553-73fb64d26a26" ,"createdAt":  "2023-07-12T21:13:28.000Z" ,"updatedAt":  "2021-12-25T07:04:18.000Z" ,"title":  "s1izhqu044" ,"content":  "55gdefh5im" ,"endDate":  "2073-08-08T21:34:36.000Z" ,"annonceType":  "3ucu8aanoh" ,"longitude":  5.94 ,"latitude":  5.98 ,"interactions":  "karvayrvk2" },{"id":  "3d94b9d8-440b-46a4-a031-c79b64037430" ,"createdAt":  "2023-06-17T14:38:25.000Z" ,"updatedAt":  "2022-09-30T18:55:34.000Z" ,"title":  "olxbe20hg4" ,"content":  "rxope4zsr9" ,"endDate":  "2014-07-18T18:06:09.000Z" ,"annonceType":  "gywzq1aaon" ,"longitude":  5.22 ,"latitude":  5.53 ,"interactions":  "3ll3hu6liq" },{"id":  "378137f3-c2d2-477f-8a1f-9bd084427b75" ,"createdAt":  "2022-07-06T20:55:10.000Z" ,"updatedAt":  "2022-09-12T08:11:30.000Z" ,"title":  "fj3kdgvze1" ,"content":  "sy6ciwzm6l" ,"endDate":  "2036-04-17T06:18:34.000Z" ,"annonceType":  "qz69wayu1a" ,"longitude":  7 ,"latitude":  6.97 ,"interactions":  "u9fkxejczs" },{"id":  "45862cbd-6f50-4e0d-becf-17163f07f589" ,"createdAt":  "2021-08-12T19:26:29.000Z" ,"updatedAt":  "2022-07-04T02:33:17.000Z" ,"title":  "ajrtimbg04" ,"content":  "wuytldtf2p" ,"endDate":  "2046-07-23T10:14:33.000Z" ,"annonceType":  "nrxe9e7189" ,"longitude":  6.59 ,"latitude":  5.3 ,"interactions":  "ueweivl2zi" },{"id":  "a6c1ed7e-7f29-4611-b1b6-bc6b4ae1dd8e" ,"createdAt":  "2022-03-31T13:25:39.000Z" ,"updatedAt":  "2022-09-05T08:51:27.000Z" ,"title":  "ry0g4tqyaj" ,"content":  "nbflmtzlzy" ,"endDate":  "2091-06-27T12:09:07.000Z" ,"annonceType":  "76rb7oxgk5" ,"longitude":  4.33 ,"latitude":  5.07 ,"interactions":  "t6f6rivu6y" },{"id":  "7f355b27-e8e1-41a6-971b-b215f8a5c6fe" ,"createdAt":  "2023-04-10T15:28:06.000Z" ,"updatedAt":  "2022-12-09T04:45:11.000Z" ,"title":  "be579zys4m" ,"content":  "urb8adzjnz" ,"endDate":  "2090-09-29T17:52:38.000Z" ,"annonceType":  "1y7pzsbd5o" ,"longitude":  3.59 ,"latitude":  6.64 ,"interactions":  "u01517otgd" },{"id":  "a51d776e-6c49-4a3d-9ae9-8983ef031e85" ,"createdAt":  "2022-05-11T13:15:57.000Z" ,"updatedAt":  "2022-03-11T16:32:24.000Z" ,"title":  "83vxiex2di" ,"content":  "fczwyieahv" ,"endDate":  "2023-01-06T05:00:32.000Z" ,"annonceType":  "6detlhbduy" ,"longitude":  7.91 ,"latitude":  8.78 ,"interactions":  "7addkqf2um" },{"id":  "4ed24d52-9f17-4d6e-b648-d53e3b7dd645" ,"createdAt":  "2022-02-17T05:41:27.000Z" ,"updatedAt":  "2022-08-31T12:53:57.000Z" ,"title":  "8woxpr5032" ,"content":  "ouyjxos20c" ,"endDate":  "2048-05-24T00:26:44.000Z" ,"annonceType":  "8s5tziyvhj" ,"longitude":  3.65 ,"latitude":  1.75 ,"interactions":  "1h2wk91vmq" },{"id":  "f57246be-fb67-41f6-ab27-57f16cbf0c1d" ,"createdAt":  "2023-01-22T05:40:52.000Z" ,"updatedAt":  "2022-02-12T12:10:30.000Z" ,"title":  "k7j7b19otv" ,"content":  "eldnycun8m" ,"endDate":  "2015-09-02T05:10:32.000Z" ,"annonceType":  "45zlyabg8n" ,"longitude":  1.82 ,"latitude":  9.71 ,"interactions":  "33v14tucdz" },{"id":  "b79ad7bc-4eba-4a59-a672-37ebdb30efc6" ,"createdAt":  "2021-09-28T14:09:46.000Z" ,"updatedAt":  "2022-06-27T23:44:38.000Z" ,"title":  "qkwc4ycs8w" ,"content":  "kawbqs7ph5" ,"endDate":  "2020-08-01T09:17:31.000Z" ,"annonceType":  "j2hfmqxvzy" ,"longitude":  5.18 ,"latitude":  2.69 ,"interactions":  "r92ike7oiq" }]}